{
  "metadata": {
    "description": "제주도 발전소 데이터 (태양광, 풍력, ESS, 화력)",
    "sources": [
      "한국남부발전 (KOSPO) 발전설비현황",
      "한국중부발전 (KOMIPO) 제주발전본부",
      "공공데이터포털 - 제주특별자치도_풍력발전현황",
      "공공데이터포털 - 한국전력거래소_신재생연계ESS",
      "제주에너지공사 데이터개방",
      "전력통계정보시스템 (EPSIS)"
    ],
    "last_updated": "2025-12-18",
    "data_reference": "2024년 기준 최신 데이터",
    "coordinate_system": "WGS84",
    "total_wind_capacity_mw": 417.8,
    "total_solar_capacity_mw": 562.6,
    "total_thermal_capacity_mw": 598.8,
    "total_ess_capacity_mwh": 460,
    "total_hvdc_capacity_mw": 900
  },
  "wind_farms": [
    {
      "id": "wind_001",
      "name": "한경풍력발전단지",
      "name_en": "Hangyeong Wind Farm",
      "type": "wind",
      "subtype": "onshore",
      "latitude": 33.339417,
      "longitude": 126.169222,
      "capacity_mw": 21.0,
      "turbine_count": 9,
      "operator": "한국남부발전",
      "status": "운영중",
      "address": "제주시 한경면 두모리",
      "turbine_model": "Vestas V90/3000, Neg Micon NM72c/1500",
      "commissioning_year": 2007
    },
    {
      "id": "wind_002",
      "name": "상명풍력발전단지",
      "name_en": "Jeju Sangmyung Wind Farm",
      "type": "wind",
      "subtype": "onshore",
      "latitude": 33.339250,
      "longitude": 126.289556,
      "capacity_mw": 21.0,
      "turbine_count": 7,
      "operator": "제주에너지공사",
      "status": "운영중",
      "address": "제주시 한림읍",
      "turbine_model": "Doosan WinDS3000/91"
    },
    {
      "id": "wind_003",
      "name": "가시리풍력발전단지",
      "name_en": "Gasi-ri Wind Farm",
      "type": "wind",
      "subtype": "onshore",
      "latitude": 33.3576,
      "longitude": 126.7461,
      "capacity_mw": 30.0,
      "turbine_count": 15,
      "operator": "제주에너지공사",
      "status": "운영중",
      "address": "서귀포시 표선면 가시리 산68",
      "turbine_model": "Doosan WinDS3000",
      "commissioning_year": 2011
    },
    {
      "id": "wind_004",
      "name": "김녕풍력발전단지",
      "name_en": "Gimnyeong Wind Farm",
      "type": "wind",
      "subtype": "onshore",
      "latitude": 33.5560,
      "longitude": 126.7480,
      "capacity_mw": 30.0,
      "turbine_count": 10,
      "operator": "제주에너지공사",
      "status": "운영중",
      "address": "제주시 구좌읍 김녕리",
      "turbine_model": "Doosan WinDS3000"
    },
    {
      "id": "wind_005",
      "name": "행원풍력발전단지",
      "name_en": "Haengwon Wind Farm",
      "type": "wind",
      "subtype": "onshore",
      "latitude": 33.5490,
      "longitude": 126.7990,
      "capacity_mw": 8.385,
      "turbine_count": 15,
      "operator": "제주에너지공사",
      "status": "운영중",
      "address": "제주시 구좌읍 행원리 563",
      "turbine_model": "Mixed (Vestas, NEG Micon)",
      "commissioning_year": 1998
    },
    {
      "id": "wind_006",
      "name": "삼달풍력발전단지",
      "name_en": "Samdal Wind Farm",
      "type": "wind",
      "subtype": "onshore",
      "latitude": 33.3790,
      "longitude": 126.8630,
      "capacity_mw": 33.0,
      "turbine_count": 11,
      "operator": "제주에너지공사",
      "status": "운영중",
      "address": "서귀포시 성산읍 삼달리",
      "turbine_model": "Doosan WinDS3000"
    },
    {
      "id": "wind_007",
      "name": "성산1풍력발전단지",
      "name_en": "Seongsan 1 Wind Farm",
      "type": "wind",
      "subtype": "onshore",
      "latitude": 33.4399,
      "longitude": 126.9229,
      "capacity_mw": 12.0,
      "turbine_count": 4,
      "operator": "제주에너지공사",
      "status": "운영중",
      "address": "서귀포시 성산읍",
      "turbine_model": "Doosan WinDS3000"
    },
    {
      "id": "wind_008",
      "name": "성산2풍력발전단지",
      "name_en": "Seongsan 2 Wind Farm",
      "type": "wind",
      "subtype": "onshore",
      "latitude": 33.4350,
      "longitude": 126.9180,
      "capacity_mw": 8.0,
      "turbine_count": 4,
      "operator": "제주에너지공사",
      "status": "운영중",
      "address": "서귀포시 성산읍",
      "turbine_model": "Unison U93"
    },
    {
      "id": "wind_009",
      "name": "신창풍력발전단지",
      "name_en": "Sinchang Wind Farm",
      "type": "wind",
      "subtype": "onshore",
      "latitude": 33.3650,
      "longitude": 126.1740,
      "capacity_mw": 1.7,
      "turbine_count": 2,
      "operator": "한국남부발전",
      "status": "운영중",
      "address": "제주시 한경면 신창리",
      "turbine_model": "Vestas V52"
    },
    {
      "id": "wind_010",
      "name": "월정풍력발전단지",
      "name_en": "Woljeong Wind Farm",
      "type": "wind",
      "subtype": "onshore",
      "latitude": 33.5556,
      "longitude": 126.7925,
      "capacity_mw": 1.5,
      "turbine_count": 1,
      "operator": "제주도청",
      "status": "운영중",
      "address": "제주시 구좌읍 월정리",
      "turbine_model": "Vestas V66"
    },
    {
      "id": "wind_011",
      "name": "탐라해상풍력발전단지",
      "name_en": "Tamra Offshore Wind Farm",
      "type": "wind",
      "subtype": "offshore",
      "latitude": 33.2942,
      "longitude": 126.1631,
      "capacity_mw": 30.0,
      "turbine_count": 10,
      "operator": "탐라해상풍력발전(주)",
      "status": "운영중",
      "address": "제주시 한경면 두모리~금등리 해상",
      "turbine_model": "Doosan WinDS3000",
      "commissioning_year": 2017
    },
    {
      "id": "wind_012",
      "name": "가파도풍력발전단지",
      "name_en": "Gapado Wind Farm",
      "type": "wind",
      "subtype": "island",
      "latitude": 33.1637,
      "longitude": 126.2742,
      "capacity_mw": 0.5,
      "turbine_count": 2,
      "operator": "제주에너지공사",
      "status": "운영중",
      "address": "서귀포시 대정읍 가파리",
      "turbine_model": "Small wind turbine"
    },
    {
      "id": "wind_013",
      "name": "월령풍력발전단지",
      "name_en": "Wollyeong Wind Farm",
      "type": "wind",
      "subtype": "onshore",
      "latitude": 33.4170,
      "longitude": 126.2330,
      "capacity_mw": 2.0,
      "turbine_count": 2,
      "operator": "한국남부발전",
      "status": "운영중",
      "address": "제주시 한림읍 월령리",
      "turbine_model": "Vestas V52"
    },
    {
      "id": "wind_014",
      "name": "제주음풍력발전단지",
      "name_en": "Jeju Eum Wind Farm",
      "type": "wind",
      "subtype": "onshore",
      "latitude": 33.4800,
      "longitude": 126.5500,
      "capacity_mw": 21.0,
      "turbine_count": 7,
      "operator": "제주에너지공사",
      "status": "운영중",
      "address": "제주시",
      "turbine_model": "Doosan WinDS3000"
    },
    {
      "id": "wind_015",
      "name": "동복-북촌풍력발전단지",
      "name_en": "Dongbok-Bukchon Wind Farm",
      "type": "wind",
      "subtype": "onshore",
      "latitude": 33.5300,
      "longitude": 126.7200,
      "capacity_mw": 30.0,
      "turbine_count": 15,
      "operator": "제주에너지공사",
      "status": "운영중",
      "address": "제주시 조천읍 북촌리",
      "turbine_model": "2MW class",
      "commissioning_year": 2020
    },
    {
      "id": "wind_016",
      "name": "대정풍력발전단지",
      "name_en": "Daejeong Wind Farm",
      "type": "wind",
      "subtype": "onshore",
      "latitude": 33.2200,
      "longitude": 126.2800,
      "capacity_mw": 45.0,
      "turbine_count": 15,
      "operator": "민간사업자",
      "status": "운영중",
      "address": "서귀포시 대정읍",
      "turbine_model": "3MW class",
      "commissioning_year": 2022
    },
    {
      "id": "wind_017",
      "name": "한동-평대해상풍력",
      "name_en": "Handong-Pyeongdae Offshore",
      "type": "wind",
      "subtype": "offshore",
      "latitude": 33.5700,
      "longitude": 126.8600,
      "capacity_mw": 100.0,
      "turbine_count": 12,
      "operator": "제주에너지공사/한국동서발전",
      "status": "건설중",
      "address": "제주시 구좌읍 해상",
      "turbine_model": "8MW class",
      "expected_completion": 2026
    }
  ],
  "solar_farms": [
    {
      "id": "solar_001",
      "name": "구좌태양광발전소",
      "type": "solar",
      "subtype": "ground-mounted",
      "latitude": 33.5200,
      "longitude": 126.8500,
      "capacity_mw": 0.75,
      "operator": "제주에너지공사",
      "status": "운영중",
      "address": "제주시 구좌읍"
    },
    {
      "id": "solar_002",
      "name": "송당리태양광",
      "type": "solar",
      "subtype": "ground-mounted",
      "latitude": 33.4500,
      "longitude": 126.7800,
      "capacity_mw": 1.834,
      "operator": "한국남부발전",
      "status": "운영중",
      "address": "제주시 구좌읍 송당리",
      "commissioning_year": 2024
    },
    {
      "id": "solar_003",
      "name": "서화리태양광",
      "type": "solar",
      "subtype": "ground-mounted",
      "latitude": 33.4200,
      "longitude": 126.7600,
      "capacity_mw": 1.5,
      "operator": "한국남부발전",
      "status": "운영중",
      "address": "서귀포시 표선면 서화리",
      "commissioning_year": 2023
    },
    {
      "id": "solar_004",
      "name": "가시리태양광",
      "type": "solar",
      "subtype": "ground-mounted",
      "latitude": 33.3600,
      "longitude": 126.7500,
      "capacity_mw": 1.2,
      "operator": "한국남부발전",
      "status": "운영중",
      "address": "서귀포시 표선면 가시리",
      "commissioning_year": 2022
    },
    {
      "id": "solar_distributed",
      "name": "분산형 태양광 (주택/상업)",
      "type": "solar",
      "subtype": "distributed",
      "latitude": 33.4500,
      "longitude": 126.5500,
      "capacity_mw": 557.3,
      "operator": "다수 (1,620개소)",
      "status": "운영중",
      "address": "제주도 전역",
      "note": "2024년 기준 제주도 전체 태양광 설비의 99%"
    }
  ],
  "ess_facilities": [
    {
      "id": "ess_001",
      "name": "제주 변동성완화 ESS 1",
      "type": "ess",
      "subtype": "utility-scale",
      "latitude": 33.5100,
      "longitude": 126.5400,
      "capacity_mw": 30,
      "capacity_mwh": 60,
      "operator": "한국전력공사",
      "status": "운영중",
      "address": "제주시 변전소",
      "purpose": "재생에너지 변동성 완화"
    },
    {
      "id": "ess_002",
      "name": "제주 피크저감 ESS",
      "type": "ess",
      "subtype": "utility-scale",
      "latitude": 33.4500,
      "longitude": 126.5600,
      "capacity_mw": 20,
      "capacity_mwh": 80,
      "operator": "한국전력공사",
      "status": "운영중",
      "address": "제주시",
      "purpose": "피크 수요 저감"
    },
    {
      "id": "ess_003",
      "name": "한경풍력 연계 ESS",
      "type": "ess",
      "subtype": "renewable-coupled",
      "latitude": 33.3400,
      "longitude": 126.1700,
      "capacity_mw": 10,
      "capacity_mwh": 20,
      "operator": "한국남부발전",
      "status": "운영중",
      "address": "제주시 한경면",
      "purpose": "풍력 출력안정화"
    },
    {
      "id": "ess_004",
      "name": "가시리풍력 연계 ESS",
      "type": "ess",
      "subtype": "renewable-coupled",
      "latitude": 33.3576,
      "longitude": 126.7500,
      "capacity_mw": 15,
      "capacity_mwh": 40,
      "operator": "제주에너지공사",
      "status": "운영중",
      "address": "서귀포시 표선면 가시리",
      "purpose": "풍력 출력안정화"
    },
    {
      "id": "ess_005",
      "name": "제주 장주기 ESS (신규)",
      "type": "ess",
      "subtype": "long-duration",
      "latitude": 33.4800,
      "longitude": 126.4900,
      "capacity_mw": 65,
      "capacity_mwh": 260,
      "operator": "한국전력공사",
      "status": "건설중",
      "address": "제주시",
      "purpose": "재생에너지 출력제어 해소",
      "expected_completion": 2026,
      "note": "제10차 전력수급기본계획 반영"
    }
  ],
  "thermal_plants": [
    {
      "id": "thermal_001",
      "name": "남제주화력 1,2호기",
      "name_en": "South Jeju Thermal Units 1-2",
      "type": "thermal",
      "subtype": "steam",
      "latitude": 33.2670,
      "longitude": 126.5150,
      "capacity_mw": 200,
      "units": [
        {"unit": 1, "capacity_mw": 100, "commissioned": "2006-09"},
        {"unit": 2, "capacity_mw": 100, "commissioned": "2007-03"}
      ],
      "operator": "한국남부발전",
      "status": "운영중",
      "address": "서귀포시 안덕면 화순해안로 106번길 55",
      "fuel_type": "바이오중유",
      "role": "중간부하"
    },
    {
      "id": "thermal_002",
      "name": "남제주 LNG복합",
      "name_en": "South Jeju LNG Combined Cycle",
      "type": "thermal",
      "subtype": "combined-cycle",
      "latitude": 33.2680,
      "longitude": 126.5160,
      "capacity_mw": 158.8,
      "units": [
        {"unit": "GT1", "capacity_mw": 51.1, "type": "gas_turbine"},
        {"unit": "GT2", "capacity_mw": 51.1, "type": "gas_turbine"},
        {"unit": "ST", "capacity_mw": 56.7, "type": "steam_turbine"}
      ],
      "operator": "한국남부발전",
      "status": "운영중",
      "address": "서귀포시 안덕면",
      "fuel_type": "LNG",
      "commissioning_year": 2020,
      "role": "첨두부하"
    },
    {
      "id": "thermal_003",
      "name": "제주 LNG복합화력",
      "name_en": "Jeju LNG Combined Cycle",
      "type": "thermal",
      "subtype": "combined-cycle",
      "latitude": 33.4920,
      "longitude": 126.4750,
      "capacity_mw": 240,
      "operator": "한국중부발전",
      "status": "운영중",
      "address": "제주시 화북동",
      "fuel_type": "LNG (비상시 경유)",
      "commissioning_year": 2019,
      "role": "기저/중간부하",
      "note": "제주 전력공급의 약 20% 담당"
    }
  ],
  "hvdc_links": [
    {
      "id": "hvdc_001",
      "name": "제주-해남 HVDC 1",
      "type": "hvdc",
      "latitude_jeju": 33.5200,
      "longitude_jeju": 126.5300,
      "latitude_mainland": 34.5700,
      "longitude_mainland": 126.5900,
      "capacity_mw": 300,
      "length_km": 101,
      "voltage_kv": 180,
      "commissioning_year": 1998,
      "status": "운영중"
    },
    {
      "id": "hvdc_002",
      "name": "제주-해남 HVDC 2",
      "type": "hvdc",
      "latitude_jeju": 33.5200,
      "longitude_jeju": 126.5300,
      "latitude_mainland": 34.5700,
      "longitude_mainland": 126.5900,
      "capacity_mw": 400,
      "length_km": 105,
      "voltage_kv": 250,
      "commissioning_year": 2013,
      "status": "운영중"
    },
    {
      "id": "hvdc_003",
      "name": "제주-진도 HVDC 3",
      "type": "hvdc",
      "latitude_jeju": 33.4500,
      "longitude_jeju": 126.3000,
      "latitude_mainland": 34.4500,
      "longitude_mainland": 126.2500,
      "capacity_mw": 200,
      "length_km": 122,
      "voltage_kv": 150,
      "commissioning_year": 2023,
      "status": "운영중"
    }
  ],
  "summary": {
    "total_capacity_mw": {
      "wind": 417.8,
      "solar": 562.6,
      "thermal": 598.8,
      "ess_power": 140,
      "hvdc": 900
    },
    "renewable_share_percent": 50.7,
    "note": "2024년 5월 기준 EPSIS 통계"
  }
}
