{
  "metadata": {
    "description": "제주도 발전소 데이터 (태양광, 풍력, ESS)",
    "sources": [
      "공공데이터포털 - 제주특별자치도_풍력발전현황",
      "공공데이터포털 - 제주에너지공사_발전시설 현황",
      "공공데이터포털 - 한국에너지공단_풍력기 위치정보",
      "The Wind Power (thewindpower.net)",
      "제주에너지공사 주요시설"
    ],
    "last_updated": "2024-12-18",
    "coordinate_system": "WGS84",
    "total_wind_capacity_mw": 220.385,
    "total_solar_capacity_mw": 4.852,
    "total_ess_capacity_mwh": 200
  },
  "wind_farms": [
    {
      "id": "wind_001",
      "name": "한경풍력발전단지",
      "name_en": "Hangyeong Wind Farm",
      "type": "wind",
      "subtype": "onshore",
      "latitude": 33.339417,
      "longitude": 126.169222,
      "capacity_mw": 21.0,
      "turbine_count": 9,
      "operator": "한국남부발전",
      "status": "운영중",
      "address": "제주시 한경면 두모리",
      "turbine_model": "Vestas V90/3000, Neg Micon NM72c/1500",
      "source": "thewindpower.net"
    },
    {
      "id": "wind_002",
      "name": "상명풍력발전단지",
      "name_en": "Jeju Sangmyung Wind Farm",
      "type": "wind",
      "subtype": "onshore",
      "latitude": 33.339250,
      "longitude": 126.289556,
      "capacity_mw": 21.0,
      "turbine_count": 7,
      "operator": "제주에너지공사",
      "status": "운영중",
      "address": "제주시 한림읍",
      "turbine_model": "Doosan WinDS3000/91",
      "source": "thewindpower.net"
    },
    {
      "id": "wind_003",
      "name": "가시리풍력발전단지",
      "name_en": "Gasi-ri Wind Farm",
      "type": "wind",
      "subtype": "onshore",
      "latitude": 33.3576,
      "longitude": 126.7461,
      "capacity_mw": 30.0,
      "turbine_count": 15,
      "operator": "제주에너지공사",
      "status": "운영중",
      "address": "서귀포시 표선면 가시리 산68",
      "turbine_model": "Doosan WinDS3000",
      "source": "공공데이터포털"
    },
    {
      "id": "wind_004",
      "name": "김녕풍력발전단지",
      "name_en": "Gimnyeong Wind Farm",
      "type": "wind",
      "subtype": "onshore",
      "latitude": 33.5560,
      "longitude": 126.7480,
      "capacity_mw": 30.0,
      "turbine_count": 10,
      "operator": "제주에너지공사",
      "status": "운영중",
      "address": "제주시 구좌읍 김녕리",
      "turbine_model": "Doosan WinDS3000",
      "source": "공공데이터포털"
    },
    {
      "id": "wind_005",
      "name": "행원풍력발전단지",
      "name_en": "Haengwon Wind Farm",
      "type": "wind",
      "subtype": "onshore",
      "latitude": 33.5490,
      "longitude": 126.7990,
      "capacity_mw": 8.385,
      "turbine_count": 15,
      "operator": "제주에너지공사",
      "status": "운영중",
      "address": "제주시 구좌읍 행원리 563",
      "turbine_model": "Mixed (Vestas, NEG Micon)",
      "commissioning_year": 1998,
      "source": "thewindpower.net, 제주에너지공사"
    },
    {
      "id": "wind_006",
      "name": "삼달풍력발전단지",
      "name_en": "Samdal Wind Farm",
      "type": "wind",
      "subtype": "onshore",
      "latitude": 33.3790,
      "longitude": 126.8630,
      "capacity_mw": 33.0,
      "turbine_count": 11,
      "operator": "제주에너지공사",
      "status": "운영중",
      "address": "서귀포시 성산읍 삼달리",
      "turbine_model": "Doosan WinDS3000",
      "source": "thewindpower.net"
    },
    {
      "id": "wind_007",
      "name": "성산1풍력발전단지",
      "name_en": "Seongsan 1 Wind Farm",
      "type": "wind",
      "subtype": "onshore",
      "latitude": 33.4399,
      "longitude": 126.9229,
      "capacity_mw": 12.0,
      "turbine_count": 4,
      "operator": "제주에너지공사",
      "status": "운영중",
      "address": "서귀포시 성산읍",
      "turbine_model": "Doosan WinDS3000",
      "source": "thewindpower.net"
    },
    {
      "id": "wind_008",
      "name": "성산2풍력발전단지",
      "name_en": "Seongsan 2 Wind Farm",
      "type": "wind",
      "subtype": "onshore",
      "latitude": 33.4350,
      "longitude": 126.9180,
      "capacity_mw": 8.0,
      "turbine_count": 4,
      "operator": "제주에너지공사",
      "status": "운영중",
      "address": "서귀포시 성산읍",
      "turbine_model": "Unison U93",
      "source": "thewindpower.net"
    },
    {
      "id": "wind_009",
      "name": "신창풍력발전단지",
      "name_en": "Sinchang Wind Farm",
      "type": "wind",
      "subtype": "onshore",
      "latitude": 33.3650,
      "longitude": 126.1740,
      "capacity_mw": 1.7,
      "turbine_count": 2,
      "operator": "한국남부발전",
      "status": "운영중",
      "address": "제주시 한경면 신창리",
      "turbine_model": "Vestas V52",
      "source": "thewindpower.net"
    },
    {
      "id": "wind_010",
      "name": "월정풍력발전단지",
      "name_en": "Woljeong Wind Farm",
      "type": "wind",
      "subtype": "onshore",
      "latitude": 33.5556,
      "longitude": 126.7925,
      "capacity_mw": 1.5,
      "turbine_count": 1,
      "operator": "제주도청",
      "status": "운영중",
      "address": "제주시 구좌읍 월정리",
      "turbine_model": "Vestas V66",
      "source": "thewindpower.net"
    },
    {
      "id": "wind_011",
      "name": "탐라해상풍력발전단지",
      "name_en": "Tamra Offshore Wind Farm",
      "type": "wind",
      "subtype": "offshore",
      "latitude": 33.2942,
      "longitude": 126.1631,
      "capacity_mw": 30.0,
      "turbine_count": 10,
      "operator": "탐라해상풍력발전(주)",
      "status": "운영중",
      "address": "제주시 한경면 두모리~금등리 해상",
      "turbine_model": "Doosan WinDS3000",
      "commissioning_year": 2017,
      "source": "thewindpower.net"
    },
    {
      "id": "wind_012",
      "name": "가파도풍력발전단지",
      "name_en": "Gapado Wind Farm",
      "type": "wind",
      "subtype": "island",
      "latitude": 33.1637,
      "longitude": 126.2742,
      "capacity_mw": 0.5,
      "turbine_count": 2,
      "operator": "제주에너지공사",
      "status": "운영중",
      "address": "서귀포시 대정읍 가파리",
      "turbine_model": "Small wind turbine",
      "source": "thewindpower.net"
    },
    {
      "id": "wind_013",
      "name": "월령풍력발전단지",
      "name_en": "Wollyeong Wind Farm",
      "type": "wind",
      "subtype": "onshore",
      "latitude": 33.4170,
      "longitude": 126.2330,
      "capacity_mw": 2.0,
      "turbine_count": 2,
      "operator": "한국남부발전",
      "status": "운영중",
      "address": "제주시 한림읍 월령리",
      "turbine_model": "Vestas V52",
      "source": "thewindpower.net"
    },
    {
      "id": "wind_014",
      "name": "제주음풍력발전단지",
      "name_en": "Jeju Eum Wind Farm",
      "type": "wind",
      "subtype": "onshore",
      "latitude": 33.4800,
      "longitude": 126.5500,
      "capacity_mw": 21.0,
      "turbine_count": 7,
      "operator": "제주에너지공사",
      "status": "운영중",
      "address": "제주시",
      "turbine_model": "Doosan WinDS3000",
      "source": "thewindpower.net"
    },
    {
      "id": "wind_015",
      "name": "한동-평대해상풍력",
      "name_en": "Handong Pyeongdae Offshore",
      "type": "wind",
      "subtype": "offshore",
      "latitude": 33.5700,
      "longitude": 126.8600,
      "capacity_mw": 105.0,
      "turbine_count": 15,
      "operator": "제주에너지공사/Terrawatt",
      "status": "계획중",
      "address": "제주시 구좌읍 해상",
      "turbine_model": "7MW class",
      "source": "thewindpower.net"
    }
  ],
  "solar_farms": [
    {
      "id": "solar_001",
      "name": "구좌태양광발전소",
      "name_en": "Gujwa Solar Farm",
      "type": "solar",
      "subtype": "ground-mounted",
      "latitude": 33.5200,
      "longitude": 126.8500,
      "capacity_mw": 0.75,
      "operator": "제주에너지공사",
      "status": "운영중",
      "address": "제주시 구좌읍",
      "source": "제주에너지공사"
    },
    {
      "id": "solar_002",
      "name": "삼도태양광발전소",
      "name_en": "Samdo Solar Farm",
      "type": "solar",
      "subtype": "ground-mounted",
      "latitude": 33.5100,
      "longitude": 126.5200,
      "capacity_mw": 1.7,
      "operator": "제주에너지공사",
      "status": "운영중",
      "address": "제주시 삼도동",
      "source": "제주에너지공사"
    },
    {
      "id": "solar_003",
      "name": "용담태양광발전소",
      "name_en": "Yongdam Solar Farm",
      "type": "solar",
      "subtype": "ground-mounted",
      "latitude": 33.5050,
      "longitude": 126.5100,
      "capacity_mw": 0.4152,
      "operator": "제주에너지공사",
      "status": "운영중",
      "address": "제주시 용담동",
      "source": "제주에너지공사"
    },
    {
      "id": "solar_004",
      "name": "시민참여태양광발전소",
      "name_en": "Community Energy Solar Farm",
      "type": "solar",
      "subtype": "community",
      "latitude": 33.4900,
      "longitude": 126.5300,
      "capacity_mw": 0.49,
      "operator": "제주에너지공사",
      "status": "운영중",
      "address": "제주시",
      "source": "제주에너지공사"
    },
    {
      "id": "solar_005",
      "name": "한경태양광발전소",
      "name_en": "Hangyeong Solar Farm",
      "type": "solar",
      "subtype": "ground-mounted",
      "latitude": 33.3400,
      "longitude": 126.1800,
      "capacity_mw": 0.4968,
      "operator": "제주에너지공사",
      "status": "운영중",
      "address": "제주시 한경면",
      "source": "제주에너지공사"
    },
    {
      "id": "solar_006",
      "name": "표선태양광발전소",
      "name_en": "Pyoseon Solar Farm",
      "type": "solar",
      "subtype": "ground-mounted",
      "latitude": 33.3200,
      "longitude": 126.8300,
      "capacity_mw": 1.0,
      "operator": "민간사업자",
      "status": "운영중",
      "address": "서귀포시 표선면",
      "source": "공공데이터포털"
    }
  ],
  "ess_facilities": [
    {
      "id": "ess_001",
      "name": "제주 변동성완화 ESS 1",
      "name_en": "Jeju RE Stabilization ESS 1",
      "type": "ess",
      "subtype": "utility-scale",
      "latitude": 33.5100,
      "longitude": 126.5400,
      "capacity_mw": 30,
      "capacity_mwh": 60,
      "operator": "한국전력공사",
      "status": "운영중",
      "address": "제주시 변전소",
      "purpose": "재생에너지 변동성 완화",
      "source": "공공데이터포털"
    },
    {
      "id": "ess_002",
      "name": "제주 피크저감 ESS",
      "name_en": "Jeju Peak Shaving ESS",
      "type": "ess",
      "subtype": "utility-scale",
      "latitude": 33.4500,
      "longitude": 126.5600,
      "capacity_mw": 20,
      "capacity_mwh": 80,
      "operator": "한국전력공사",
      "status": "운영중",
      "address": "제주시",
      "purpose": "피크 수요 저감",
      "source": "공공데이터포털"
    },
    {
      "id": "ess_003",
      "name": "한경풍력 연계 ESS",
      "name_en": "Hangyeong Wind-Coupled ESS",
      "type": "ess",
      "subtype": "renewable-coupled",
      "latitude": 33.3400,
      "longitude": 126.1700,
      "capacity_mw": 10,
      "capacity_mwh": 20,
      "operator": "한국남부발전",
      "status": "운영중",
      "address": "제주시 한경면",
      "purpose": "풍력 출력안정화",
      "source": "공공데이터포털"
    },
    {
      "id": "ess_004",
      "name": "가시리풍력 연계 ESS",
      "name_en": "Gasi-ri Wind-Coupled ESS",
      "type": "ess",
      "subtype": "renewable-coupled",
      "latitude": 33.3576,
      "longitude": 126.7500,
      "capacity_mw": 15,
      "capacity_mwh": 40,
      "operator": "제주에너지공사",
      "status": "운영중",
      "address": "서귀포시 표선면 가시리",
      "purpose": "풍력 출력안정화",
      "source": "공공데이터포털"
    }
  ],
  "thermal_plants": [
    {
      "id": "thermal_001",
      "name": "제주화력발전소",
      "name_en": "Jeju Thermal Power Plant",
      "type": "thermal",
      "subtype": "combined-cycle",
      "latitude": 33.4920,
      "longitude": 126.4750,
      "capacity_mw": 410,
      "operator": "한국남부발전",
      "status": "운영중",
      "address": "제주시 화북동",
      "fuel_type": "LNG",
      "source": "한국남부발전"
    },
    {
      "id": "thermal_002",
      "name": "남제주화력발전소",
      "name_en": "South Jeju Thermal Power Plant",
      "type": "thermal",
      "subtype": "combined-cycle",
      "latitude": 33.2670,
      "longitude": 126.5150,
      "capacity_mw": 300,
      "operator": "한국남부발전",
      "status": "운영중",
      "address": "서귀포시 안덕면",
      "fuel_type": "LNG",
      "source": "한국남부발전"
    }
  ],
  "hvdc_links": [
    {
      "id": "hvdc_001",
      "name": "제주-해남 HVDC 1",
      "name_en": "Jeju-Haenam HVDC Link 1",
      "type": "hvdc",
      "latitude_jeju": 33.5200,
      "longitude_jeju": 126.5300,
      "latitude_mainland": 34.5700,
      "longitude_mainland": 126.5900,
      "capacity_mw": 300,
      "length_km": 101,
      "voltage_kv": 180,
      "commissioning_year": 1998,
      "status": "운영중",
      "source": "한국전력공사"
    },
    {
      "id": "hvdc_002",
      "name": "제주-해남 HVDC 2",
      "name_en": "Jeju-Haenam HVDC Link 2",
      "type": "hvdc",
      "latitude_jeju": 33.5200,
      "longitude_jeju": 126.5300,
      "latitude_mainland": 34.5700,
      "longitude_mainland": 126.5900,
      "capacity_mw": 400,
      "length_km": 105,
      "voltage_kv": 250,
      "commissioning_year": 2013,
      "status": "운영중",
      "source": "한국전력공사"
    },
    {
      "id": "hvdc_003",
      "name": "제주-진도 HVDC 3",
      "name_en": "Jeju-Jindo HVDC Link 3",
      "type": "hvdc",
      "latitude_jeju": 33.4500,
      "longitude_jeju": 126.3000,
      "latitude_mainland": 34.4500,
      "longitude_mainland": 126.2500,
      "capacity_mw": 200,
      "length_km": 122,
      "voltage_kv": 150,
      "commissioning_year": 2023,
      "status": "운영중",
      "source": "한국전력공사"
    }
  ]
}
